timestamp	slug	filename	caption	location_lat	location_lng	location_alt	location_acc	hashtag_names
1724989400	20240830124320_7a38e	20240830124320_7a38e.png	台風模様	34.68994940951198	133.9232853073364	9.878580093383789	35	pxky
1725010502	20240830063502_b73bf	20240830063502_b73bf.png	空	34.79985122612351	134.88742729990418	16.736501693725586	16.40804190828733	pxky
1725061344	20240831084224_d0bce	20240831084224_d0bce.png		34.83671360182202	134.34439403194793	34.79011260997504	12.515608273426094	pxky
1725078970	20240831013610_8eff6	20240831013610_8eff6.png		34.68029460872959	134.93779177790034	24.56386947631836	4.974018164479249	pxky
1725092780	20240831052620_032a4	20240831052620_032a4.png	台風一過	34.731324172705804	134.87825814575197	15.369759522378445	4.74012956263708	pxky
1725182104	20240901061504_2eed4	20240901061504_2eed4.png		34.667497241745394	134.94973641370012	18.84125328063965	35.896155255633914	pxky;空
1725323183	20240903092623_b40e6	20240903092623_b40e6.png		34.79984275999935	134.88743422565506	18.71035386901349	4.661392274729175	pxky
1725524495	20240905052135_ee91b	20240905052135_ee91b.png		34.665122811186016	133.91756288698866	8.69318621326238	9.33170219657002	pxky;公共交通機関;駅
1725530196	20240905065636_ca2d1	20240905065636_ca2d1.png		34.39161617900076	132.46221105138198	-14.302408218383789	40	pxky
1725570757	20240906061237_c8ead	20240906061237_c8ead.png		34.39524909846777	132.45404210054912	3.374757766723633	35	pxky;戦争;歴史
1725570869	20240906061429_68aed	20240906061429_68aed.png		34.394947994479644	132.45381065338194	2.3199520111083984	36.42589766911862	pxky;戦争;歴史
1725571102	20240906061822_38a31	20240906061822_38a31.png		34.395066538672985	132.45345633869758	5.038868875130149	6.7841210368472264	pxky
1725571215	20240906062015_2e48f	20240906062015_2e48f.png		34.39407258597533	132.45385086236166	3.4007413477272337	5.085882081630657	pxky;観光船
1725571305	20240906062145_86057	20240906062145_86057.png		34.39417552993346	132.4540528284375	1.4035356044769287	52.3311376	pxky;戦争;歴史
1725592855	20240906122055_f10c6	20240906122055_f10c6.png		34.36644306680996	132.36811239205701	6.5223894119262695	35	pxky;駅
1725664527	20240907081527_c33db	20240907081527_c33db.png		34.46093190594491	133.8085323301848	5.72608757019043	39	pxky;ゲート;港
1725664803	20240907082003_de9b8	20240907082003_de9b8.png		34.46072382002723	133.80815153303914	5.2016119956970215	39	pxky;海;港
1725665192	20240907082632_25e85	20240907082632_25e85.png	遠くに見える観覧車	34.4609323902319	133.80861431811476	5.72608757019043	35	pxky;遊園地
1725666680	20240907085120_9ec88	20240907085120_9ec88.png		34.384665054259024	133.81708573754784	35.140199553221464	4.7282161251060675	pxky;橋;瀬戸大橋
1725666985	20240907085625_07f50	20240907085625_07f50.png		34.38470733219162	133.8170066586884	34.81315347272903	4.740860204956569	pxky;パーキングエリア
1725668412	20240907092012_cdc2f	20240907092012_cdc2f.png		34.310775301382826	133.80732838896895	3.363536565564573	4.7342282847335495	pxky;島;海
1725673263	20240907104103_1ef3e	20240907104103_1ef3e.png		34.31204144504984	133.8078954389591	10.320832252502441	35	pxky;イルカ;水族館
1725678135	20240907120215_7bc01	20240907120215_7bc01.png		34.31212805219921	133.80804046972435	9.300832748413086	52.85311260810634	pxky;ロゴ;水族館
1725685113	20240907015833_097e5	20240907015833_097e5.png		34.2120856618153	134.01648954535142	196.02760314941406	38	pxky;空港
1725685144	20240907015904_924a1	20240907015904_924a1.png		34.212080141904494	134.01647216590527	196.02813720703125	38	pxky;空港;遊具
1725703649	20240907070729_8013c	20240907070729_8013c.png		34.601470311414985	133.74575445366392	9.514555959962308	4.91886098533725	pxky
1726132672	20240912061752_a4ae3	20240912061752_a4ae3.png		34.689920254768076	133.92330128398044	11.019733428955078	35	pxky
1726384849	20240915042049_ea3f7	20240915042049_ea3f7.png		34.68157780317263	133.91838147332373	14.295025825500488	56	pxky
1726410809	20240915113329_f740f	20240915113329_f740f.png		34.68072814874562	133.9185574708459	9.206048011779785	74	pxky
1726437360	20240916065600_089fd	20240916065600_089fd.png		34.76012689967468	133.85368608386156	251.70602416992188	172	pxky;空港
1726438958	20240916072238_78b48	20240916072238_78b48.png		34.789809586895366	133.9737011293996	1470.9837646484375	200	pxky
1726439032	20240916072352_1dd3e	20240916072352_1dd3e.png		34.78289314120615	134.08179979202606	1957.4038908407092	5.848142598602937	pxky
1726446713	20240916093153_42e3f	20240916093153_42e3f.png		35.54975292638179	139.78261195621366	5.289679070003331	13.151514961378753	pxky;空港
1726454448	20240916114048_379c5	20240916114048_379c5.png		42.78805983591923	141.68434460784408	32.224327087402344	1414	pxky;空港
1726454757	20240916114557_bdfbe	20240916114557_bdfbe.png		42.78914826794798	141.68665306963064	41.575218200683594	1414	pxky;空港
1726454957	20240916114917_abf15	20240916114917_abf15.png		42.78740098556662	141.68205606136246	41.57521774061024	4.7628830843343	pxky;空港
1726464326	20240916022526_9b78a	20240916022526_9b78a.png		42.49163436352908	141.14256034830822	182.31285545690892	3.9641119974932786	pxky
1726570891	20240917080131_e9a2f	20240917080131_e9a2f.png		42.497538169334426	141.1464394023993	210.36209409497678	4.2659878598913	pxky;山;次
1726622456	20240918102056_9770a	20240918102056_9770a.png		42.491536496550516	141.14300414177572	177.74681938145733	10.105241132465428	pxky
1726637495	20240918023135_10f39	20240918023135_10f39.png		42.786124023306286	141.6817071017095	27.640700669959188	5.812378815730157	pxky;クロネコ;空港;飛行機
1726655456	20240918073056_ed055	20240918073056_ed055.png		34.799849311077246	134.887429281539	11.417548179626465	15.734808437902924	pxky
1727137457	20240924092417_0cf33	20240924092417_0cf33.png		33.36986609479883	130.49096751153144	17.613816000521183	6.1971577362273935	pxky;駅
1727139003	20240924095003_11ed3	20240924095003_11ed3.png		33.263807494288784	130.29771270181726	9.076549527502223	13.786341449420648	pxky;国体;駅
1727165972	20240924051932_18325	20240924051932_18325.png		33.27640523067515	130.29301167299204	4.868708610534668	53.25056320483006	pxky;SAGA2024;国体
1727166034	20240924052034_b2bef	20240924052034_b2bef.png		33.27661931191642	130.29297374078513	4.868552207946777	45.752	pxky;SAGA2024
1727166065	20240924052105_a2019	20240924052105_a2019.png		33.27682178934058	130.2929664587664	4.868308067321777	52.3311376	pxky;SAGA2024;国体
1727166096	20240924052136_b8650	20240924052136_b8650.png		33.27701895559313	130.29291509469053	4.868111610412598	45.752	pxky;SAGA2024;国体
1727773270	20241001060110_d16ed	20241001060110_d16ed.png		34.690806142561094	133.92269519677313	9.160069465637207	46	pxky
1728104718	20241005020518_ac138	20241005020518_ac138.png		34.66070362548798	133.92236782619858	7.55360746383667	35	pxky;イベント
1728185621	20241006123341_02bd9	20241006123341_02bd9.png		34.68065401648943	133.91935674179945	11.503643035888672	192	pxky;秋
1728204541	20241006054901_80134	20241006054901_80134.png		34.67680012558106	133.91911557283325	8.577616691589355	55.9573396559079	pxky
1728283098	20241007033818_ed4e7	20241007033818_ed4e7.png		34.69093671752573	133.92282858086952	9.506793975830078	47	pxky;霧
1728529829	20241010121029_73c4c	20241010121029_73c4c.png		34.69109216765092	133.92256613932094	9.555538177490234	44	pxky
1728637156	20241011055916_10003	20241011055916_10003.png		34.69058630113863	133.9228833675904	9.92164134979248	40	pxky
1728702308	20241012120508_53884	20241012120508_53884.png		35.212193054276206	134.37242385776793	1088.9765161704272	4.721419366479623	pxky;森
1728714305	20241012032505_3102e	20241012032505_3102e.png		35.08385454982994	134.24392108379888	1095.28515625	8098	pxky
1729394264	20241020121744_7fb44	20241020121744_7fb44.png		34.45431321092864	133.90487247989384	2.7507052960659024	2.7750772707292723	pxky;海
1729394296	20241020121816_f9af6	20241020121816_f9af6.png		34.454756840351756	133.904748683912	4.210648059844971	46	pxky;橋;海
1729466715	20241021082515_1b352	20241021082515_1b352.png		34.68696643806398	133.9202939993989	7.662498474121094	45.752	pxky;イチョウ;秋
1730245850	20241030085050_4f9ed	20241030085050_4f9ed.png		34.30361746468573	132.29678411638076	6.136982567727891	6.454852573900613	pxky;海
1730275388	20241030050308_4353d	20241030050308_4353d.png		34.30411287220301	132.29515466546536	3.706864356994629	105	pxky
1730278297	20241030055137_8e67a	20241030055137_8e67a.png		34.3041039741101	132.29537449584268	8.793025970458984	35	pxky
1730347027	20241031125707_9fdbc	20241031125707_9fdbc.png		34.311773203885124	132.30312052863297	2.6843292092370916	4.092879906300569	pxky;駅
1730347514	20241031010514_eaa6d	20241031010514_eaa6d.png		34.31099318883192	132.30629133964234	1.9675154722097261	15.64653918269713	pxky;フェリー;船
1730348060	20241031011420_6e8d4	20241031011420_6e8d4.png		34.304354760846316	132.31324194453444	7.399574279785156	1414	pxky;フェリー;船
1730502855	20241102081415_8764c	20241102081415_8764c.png		34.68630705817457	133.91968056218866	7.197246215306222	4.922392242710044	pxky;学祭;祭
1730531662	20241102041422_8e11c	20241102041422_8e11c.png		34.46141943842478	133.88188513138212	224.2461389907038	2.6470511011199243	pxky
1730531967	20241102041927_c2d08	20241102041927_c2d08.png		34.46197239941762	133.8821120347436	231.01426518568672	2.2377927906580686	pxky;イベント
1730535181	20241102051301_27dc5	20241102051301_27dc5.png		34.461968122733296	133.8820898765776	230.98031490202993	4.705812076545751	pxky;夕焼け
1730597486	20241103103126_18577	20241103103126_18577.png		34.68059501578715	133.91810157632503	8.720891952514648	130	pxky;イベント;キャラ;遊具
1730607613	20241103012013_454cd	20241103012013_454cd.png		34.68709050137045	133.92014476746874	8.10363937728107	4.773956060420398	pxky;イベント
1730682899	20241104101459_b9054	20241104101459_b9054.png		34.65519106003665	133.8954685681071	3.5453075505793095	4.881366680990192	pxky;貨物列車
1730683217	20241104102017_5a64f	20241104102017_5a64f.png		34.654543799980615	133.89443429423628	3.702564001083374	193	pxky;ドーム
1730877773	20241106042253_6d324	20241106042253_6d324.png		34.69000602306966	133.92327907193223	8.909131542376748	7.073569256546942	pxky
1730939674	20241107093434_4f834	20241107093434_4f834.png		33.59193083871093	130.2314437146252	2.9158051013946533	37	pxky
1731145544	20241109064544_49610	20241109064544_49610.png		34.83009249078452	135.15537419596012	228.17146200034767	4.736629770761557	pxky;道の駅
1731209195	20241110122635_6f8fb	20241110122635_6f8fb.png		34.6966929876	134.90640656290327	28.705459594726562	36.68267775198261	pxky;駅
1731547210	20241114102010_b349c	20241114102010_b349c.png		34.759837947889444	133.8538861943775	244.08728788121817	20.562340934440773	pxky;おもてなし;空港;飛行機
1731547302	20241114102142_1f87e	20241114102142_1f87e.png		34.7596121254617	133.85393990094082	246.53000549413264	4.737183814875499	pxky;おもてなし;空港
1731580455	20241114073415_afc45	20241114073415_afc45.png		35.65873866444379	139.70241325656963	20.515161514282227	43	pxky;建物
1731630353	20241115092553_cf535	20241115092553_cf535.png		38.25561791559587	140.87692920665063	39.03976642154157	14.284540830693993	pxky;紅葉
1731902944	20241118010904_f8cb6	20241118010904_f8cb6.png		34.69003671093787	133.92339384869595	8.35855458304286	14.482625761393104	pxky
1731918128	20241118052208_93c4e	20241118052208_93c4e.png		34.690569441638694	133.92294072370376	7.603044509887695	35	pxky
1732237056	20241122095736_5b03d	20241122095736_5b03d.png		34.68102634315574	133.91808679838448	7.210649807573006	4.019713963520807	pxky;紅葉
1732310585	20241123062305_75fa7	20241123062305_75fa7.png		34.69326467655364	133.93909340974633	11.923494504764676	14.245345058333502	pxky
1732311104	20241123063144_e8714	20241123063144_e8714.png		34.70917532233324	133.94869844561094	17.39977414533496	4.735465205116315	pxky
1732582810	20241126100010_b6982	20241126100010_b6982.png	大雨の新鳥栖	33.36988253218744	130.49089156712023	24.247562408447266	50	pxky
1732678803	20241127124003_95db2	20241127124003_95db2.png		33.88885086874821	130.8841157789106	4.035704180598259	14.230213396323137	pxky
1732757341	20241128102901_f087f	20241128102901_f087f.png		35.15236130110481	138.708842308485	7.871432304382324	227.8962088182651	pxky;富士山
1732764129	20241128122209_9a5a3	20241128122209_9a5a3.png		35.771711034907696	139.86525589128013	2.18749066721648	14.239458187348117	pxky;紅葉
1732952900	20241130044820_c50ee	20241130044820_c50ee.png		34.69004574239534	133.92329784219345	8.80183024611324	14.371074236137057	pxky
1733183617	20241203085337_1991a	20241203085337_1991a.png		34.68124295624069	133.91264381197647	6.093209084438357	4.660536211636115	pxky;霧
1733184300	20241203090500_6b2ba	20241203090500_6b2ba.png		34.68678527339672	133.9196379261968	8.525398281892429	5.278151414450512	pxky;イチョウ;霧
1733622108	20241208104148_2d4e9	20241208104148_2d4e9.png		34.66752666862452	133.93189035339918	14.392041206359863	40	pxky;城;岡山城
1733894228	20241211021708_5be9b	20241211021708_5be9b.png		34.68713210968139	133.9205881089061	8.22380542755127	50	pxky;紅葉
1734048204	20241213090324_36612	20241213090324_36612.png		34.68657664302955	133.9223204204816	8.256402969360352	35	pxky;紅葉
1734159868	20241214040428_c5209	20241214040428_c5209.png	秋の終わり	34.67587329727817	133.91755863423475	6.449518203735352	35	pxky;紅葉
1734596502	20241219052142_de166	20241219052142_de166.png		34.690013117674	133.92328592964012	8.359799750788554	21.945502504850857	pxky
1734749308	20241221114828_85387	20241221114828_85387.png		34.49153608900698	133.95284257809723	6.406579494476318	98.4132161914481	pxky;アート;オブジェ
1734749388	20241221114948_af5da	20241221114948_af5da.png		34.49041378165223	133.95438810494548	3.958541724830866	4.733777304892472	pxky;海
1734749409	20241221115009_bbabd	20241221115009_bbabd.png		34.490900353843664	133.95435764081876	6.406307697296143	50.36362802504111	pxky;海;釣り人
1734749478	20241221115118_cade2	20241221115118_cade2.png		34.492393307180485	133.9542318731829	6.406579494476318	54	pxky;オブジェ;シンボル;海
1734750015	20241221120015_ff579	20241221120015_ff579.png		34.493889640097294	133.95374636965846	3.9014462856575847	4.72467119131626	pxky;駅
1734844517	20241222021517_797f9	20241222021517_797f9.png		34.68152295554373	133.91500005573997	6.077898979187012	35	pxky;紅葉
1735028656	20241224052416_84c46	20241224052416_84c46.png		34.68994881649059	133.92342010821022	12.42806625366211	25.46909146192234	pxky
1735094423	20241225114023_de9bb	20241225114023_de9bb.png		34.69036156362612	133.92089127228198	7.243308397009969	14.368265589186313	pxky
1735288762	20241227053922_924c5	20241227053922_924c5.png		34.690876447033816	133.92259567372912	8.964768409729004	40	pxky
1735346117	20241228093517_8687f	20241228093517_8687f.png		34.67593080172136	133.90916756014354	6.22659969329834	36	pxky
1735349793	20241228103633_624be	20241228103633_624be.png		34.67474425247789	133.90644489724204	9.534921809099615	14.258496317978919	pxky;動物園
1735453563	20241229032603_1df40	20241229032603_1df40.png		34.67919819747986	133.91649549811154	10.702410819008946	4.5533087208410175	pxky;公園;紅葉
